{
"type": "FeatureCollection",
"crs": { "type": "name", "properties": { "name": "urn:ogc:def:crs:EPSG::102113" } },
                                                                                
"features": [
{ "type": "Feature", "properties": { "NAME": "Seattle", "ABRV":"sea", "ST": "WA" }, "geometry": { "type": "Point", "coordinates": [ -122.333145613988691, 47.626354651738673 ] } },
{ "type": "Feature", "properties": { "NAME": "Oakland", "ABRV":"oak", "ST": "CA" }, "geometry": { "type": "Point", "coordinates": [ -122.228109107445164, 36.795227172194956 ] } },
{ "type": "Feature", "properties": { "NAME": "San Francisco", "ABRV":"sf", "ST": "CA" }, "geometry": { "type": "Point", "coordinates": [ -122.437391622449468, 37.75988166763635 ] } },
{ "type": "Feature", "properties": { "NAME": "San Diego", "ABRV":"sd", "ST": "CA" }, "geometry": { "type": "Point", "coordinates": [ -117.146345601771571, 32.779545643057297 ] } },
{ "type": "Feature", "properties": { "NAME": "Phoenix", "ABRV":"ari", "ST": "AZ" }, "geometry": { "type": "Point", "coordinates": [ -112.076300116650657, 33.528372654761455 ] } },
{ "type": "Feature", "properties": { "NAME": "Denver", "ABRV":"den", "ST": "CO" }, "geometry": { "type": "Point", "coordinates": [ -104.965481594814634, 39.726291146874537 ] } },
{ "type": "Feature", "properties": { "NAME": "Dallas", "ABRV":"dal", "ST": "TX" }, "geometry": { "type": "Point", "coordinates": [ -96.787163597362692, 32.799527136774969 ] } },
{ "type": "Feature", "properties": { "NAME": "Kansas City", "ABRV":"kc", "ST": "MO" }, "geometry": { "type": "Point", "coordinates": [ -94.555409096122247, 39.076300164572238 ] } },
{ "type": "Feature", "properties": { "NAME": "Houston", "ABRV":"hou", "ST": "TX" }, "geometry": { "type": "Point", "coordinates": [ -95.383172607213851, 29.762891150857186 ] } },
{ "type": "Feature", "properties": { "NAME": "Minneapolis", "ABRV":"min", "ST": "MN" }, "geometry": { "type": "Point", "coordinates": [ -93.268200106936632, 44.964463668854748 ] } },
{ "type": "Feature", "properties": { "NAME": "Green Bay", "ABRV":"gb", "ST": "WI" }, "geometry": { "type": "Point", "coordinates": [ -88.015791084966963, 44.513445674586414 ] } },
{ "type": "Feature", "properties": { "NAME": "Detroit", "ABRV":"det", "ST": "MI" }, "geometry": { "type": "Point", "coordinates": [ -83.102636574383439, 42.387136166339538 ] } },
{ "type": "Feature", "properties": { "NAME": "Buffalo", "ABRV":"buff", "ST": "NY" }, "geometry": { "type": "Point", "coordinates": [ -78.849409094989454, 42.904654655717991 ] } },
{ "type": "Feature", "properties": { "NAME": "Boston", "ABRV":"ne", "ST": "MA" }, "geometry": { "type": "Point", "coordinates": [ -71.089118056023352, 42.321600170469935 ] } },
{ "type": "Feature", "properties": { "NAME": "New Orleans", "ABRV":"no", "ST": "LA" }, "geometry": { "type": "Point", "coordinates": [ -90.059009087711075, 29.972754155369877 ] } },
{ "type": "Feature", "properties": { "NAME": "Jacksonville", "ABRV":"jac", "ST": "FL" }, "geometry": { "type": "Point", "coordinates": [ -81.660000093603841, 30.319409127480188 ] } },
{ "type": "Feature", "properties": { "NAME": "Tampa", "ABRV":"tb", "ST": "FL" }, "geometry": { "type": "Point", "coordinates": [ -82.464636602966976, 27.970899641245765 ] } },
{ "type": "Feature", "properties": { "NAME": "Miami", "ABRV":"mia", "ST": "FL" }, "geometry": { "type": "Point", "coordinates": [ -80.224145578524002, 25.787672647584856 ] } },
{ "type": "Feature", "properties": { "NAME": "Memphis", "ABRV":"ten", "ST": "TN" }, "geometry": { "type": "Point", "coordinates": [ -89.971063574312794, 35.117363632315715 ] } },
{ "type": "Feature", "properties": { "NAME": "St. Louis", "ABRV":"stl", "ST": "MO" }, "geometry": { "type": "Point", "coordinates": [ -90.242809091533999, 38.627718144885506 ] } },
{ "type": "Feature", "properties": { "NAME": "Chicago", "ABRV": "chi", "ST": "IL" }, "geometry": { "type": "Point", "coordinates": [ -87.679363592869606, 41.840672168096582 ] } },
{ "type": "Feature", "properties": { "NAME": "Indianapolis", "ABRV":"ind", "ST": "IN" }, "geometry": { "type": "Point", "coordinates": [ -86.147681603334348, 39.790945647883667 ] } },
{ "type": "Feature", "properties": { "NAME": "Cincinnati", "ABRV":"cin", "ST": "OH" }, "geometry": { "type": "Point", "coordinates": [ -84.503091095068427, 39.136163639444646 ] } },
{ "type": "Feature", "properties": { "NAME": "Cleveland", "ABRV":"cle", "ST": "OH" }, "geometry": { "type": "Point", "coordinates": [ -81.669718099891952, 41.482299674958462 ] } },
{ "type": "Feature", "properties": { "NAME": "Atlanta", "ABRV":"atl", "ST": "GA" }, "geometry": { "type": "Point", "coordinates": [ -84.403172595306174, 33.759508632876887 ] } },
{ "type": "Feature", "properties": { "NAME": "Charlotte", "ABRV":"car", "ST": "NC" }, "geometry": { "type": "Point", "coordinates": [ -80.829227070143162, 35.207191147231597 ] } },
{ "type": "Feature", "properties": { "NAME": "Baltimore", "ABRV":"bal", "ST": "MD" }, "geometry": { "type": "Point", "coordinates": [ -76.617018074202747, 39.30795464948698 ] } },
{ "type": "Feature", "properties": { "NAME": "Philadelphia","ABRV":"phi", "ST": "PA" }, "geometry": { "type": "Point", "coordinates": [ -75.144791073089863, 39.99800914860166 ] } },
{ "type": "Feature", "properties": { "NAME": "Washington", "ABRV":"was", "ST": "DC" }, "geometry": { "type": "Point", "coordinates": [ -77.013218086021865, 38.913609165318462 ] } },
{ "type": "Feature", "properties": { "NAME": "New York", "ABRV":"nyg", "ST": "NY" }, "geometry": { "type": "Point", "coordinates": [ -73.91792705910963, 40.7042361395348 ] } },
{ "type": "Feature", "properties": { "NAME": "New York", "ABRV":"nyj", "ST": "NY" }, "geometry": { "type": "Point", "coordinates": [ -73.91792705910963, 40.7042361395348 ] } },
{ "type": "Feature", "properties": { "NAME": "Pittsburgh", "ABRV":"pit", "ST": "PA" }, "geometry": { "type": "Point", "coordinates": [ -79.977291093429002, 40.441417672621156 ] } }
]
}
